{"type": "FeatureCollection", "features": [{"type": "Feature", "geometry": {"type": "Point", "coordinates": [-81.4267269998796, 37.765912479603]}, "properties": {"name": "Accord Cemetery"}}, {"type": "Feature", "geometry": {"type": "Point", "coordinates": [-81.8151428784524, 37.9754031562092]}, "properties": {"name": "Adkins Cemetery"}}, {"type": "Feature", "geometry": {"type": "Point", "coordinates": [-81.8779444388817, 37.9373030970491]}, "properties": {"name": "Albright Cemetery"}}, {"type": "Feature", "geometry": {"type": "Point", "coordinates": [-81.2823250039999, 37.7779135210452]}, "properties": {"name": "Aliff Cemetery"}}, {"type": "Feature", "geometry": {"type": "Point", "coordinates": [-81.4079265676445, 37.7595127641655]}, "properties": {"name": "Allen Cemetery"}}, {"type": "Feature", "geometry": {"type": "Point", "coordinates": [-81.8537480334558, 38.1642981051654]}, "properties": {"name": "Altman Cemetery"}}, {"type": "Feature", "geometry": {"type": "Point", "coordinates": [-81.8323486834918, 38.2294968643302]}, "properties": {"name": "Anderson Cemetery"}}, {"type": "Feature", "geometry": {"type": "Point", "coordinates": [-81.3556295558059, 37.9376099296338]}, "properties": {"name": "Artie Cemetery"}}, {"type": "Feature", "geometry": {"type": "Point", "coordinates": [-81.5595331057056, 37.896808380715]}, "properties": {"name": "Asbury Cemetery"}}, {"type": "Feature", "geometry": {"type": "Point", "coordinates": [-81.3201264605157, 37.81931243844]}, "properties": {"name": "Athey Cemetery"}}, {"type": "Feature", "geometry": {"type": "Point", "coordinates": [-81.5631329327316, 37.8832085969842]}, "properties": {"name": "Bailey Cemetery"}}, {"type": "Feature", "geometry": {"type": "Point", "coordinates": [-81.4279288740177, 37.8495108698441]}, "properties": {"name": "Bailey Cemetery"}}, {"type": "Feature", "geometry": {"type": "Point", "coordinates": [-81.8767443025973, 37.9315032366151]}, "properties": {"name": "Baldwin Cemetery"}}, {"type": "Feature", "geometry": {"type": "Point", "coordinates": [-81.8467443743771, 37.9998022078352]}, "properties": {"name": "Ball Cemeteries"}}, {"type": "Feature", "geometry": {"type": "Point", "coordinates": [-81.8198428735926, 37.9651033026638]}, "properties": {"name": "Ball Cemetery"}}, {"type": "Feature", "geometry": {"type": "Point", "coordinates": [-81.8209430473007, 37.973403116878]}, "properties": {"name": "Ball Cemetery"}}, {"type": "Feature", "geometry": {"type": "Point", "coordinates": [-81.7937447227992, 38.102900504962]}, "properties": {"name": "Ballard Cemetery"}}, {"type": "Feature", "geometry": {"type": "Point", "coordinates": [-81.8465464429048, 38.0994997909621]}, "properties": {"name": "Ballard Cemetery"}}, {"type": "Feature", "geometry": {"type": "Point", "coordinates": [-81.7187442071974, 38.1853997427989]}, "properties": {"name": "Barker Cemetery"}}, {"type": "Feature", "geometry": {"type": "Point", "coordinates": [-81.6751429512342, 38.1801005775007]}, "properties": {"name": "Barker Cemetery"}}, {"type": "Feature", "geometry": {"type": "Point", "coordinates": [-81.6865424965793, 38.1473011392425]}, "properties": {"name": "Barker Cemetery"}}, {"type": "Feature", "geometry": {"type": "Point", "coordinates": [-81.7756491866917, 38.3386951958685]}, "properties": {"name": "Bays Cemetery"}}, {"type": "Feature", "geometry": {"type": "Point", "coordinates": [-81.8604440036253, 37.9479031075732]}, "properties": {"name": "Bias Cemetery"}}, {"type": "Feature", "geometry": {"type": "Point", "coordinates": [-81.8659454080009, 38.0176015011495]}, "properties": {"name": "Bias Cemetery"}}, {"type": "Feature", "geometry": {"type": "Point", "coordinates": [-81.7031420583747, 38.1082017717846]}, "properties": {"name": "Bias Cemetery"}}, {"type": "Feature", "geometry": {"type": "Point", "coordinates": [-81.8506437577119, 37.9537031184462]}, "properties": {"name": "Bias Cemetery"}}, {"type": "Feature", "geometry": {"type": "Point", "coordinates": [-81.4784298187646, 37.854310297175]}, "properties": {"name": "Bone Cemetery"}}, {"type": "Feature", "geometry": {"type": "Point", "coordinates": [-81.4567297652212, 37.8679102399214]}, "properties": {"name": "Bone Cemetery"}}, {"type": "Feature", "geometry": {"type": "Point", "coordinates": [-81.6165393931077, 38.097003370703]}, "properties": {"name": "Bowen Cemetery"}}, {"type": "Feature", "geometry": {"type": "Point", "coordinates": [-81.4406290796006, 37.8493107533447]}, "properties": {"name": "Bradford Cemetery"}}, {"type": "Feature", "geometry": {"type": "Point", "coordinates": [-81.8351419592418, 37.8765049309366]}, "properties": {"name": "Browning Cemetery"}}, {"type": "Feature", "geometry": {"type": "Point", "coordinates": [-81.8723526042764, 38.3544933879337]}, "properties": {"name": "Bryant Cemetery"}}, {"type": "Feature", "geometry": {"type": "Point", "coordinates": [-81.2665240776535, 37.7312142572699]}, "properties": {"name": "Cannaday Cemetery"}}, {"type": "Feature", "geometry": {"type": "Point", "coordinates": [-81.867645495741, 38.0190014425101]}, "properties": {"name": "Canterberry Cemetery"}}, {"type": "Feature", "geometry": {"type": "Point", "coordinates": [-81.4179287218656, 37.8501109531856]}, "properties": {"name": "Cantley Cemetery"}}, {"type": "Feature", "geometry": {"type": "Point", "coordinates": [-81.4534294150624, 37.8548105255296]}, "properties": {"name": "Cantley Cemetery"}}, {"type": "Feature", "geometry": {"type": "Point", "coordinates": [-81.3670274634702, 37.8307117958142]}, "properties": {"name": "Chambers Cemetery"}}, {"type": "Feature", "geometry": {"type": "Point", "coordinates": [-81.8609466499805, 38.0858999060482]}, "properties": {"name": "Chambers Cemetery"}}, {"type": "Feature", "geometry": {"type": "Point", "coordinates": [-81.755947697066, 38.2994964322935]}, "properties": {"name": "Childress Cemetery"}}, {"type": "Feature", "geometry": {"type": "Point", "coordinates": [-81.3165255689161, 37.779313194736]}, "properties": {"name": "Clay Cemetery"}}, {"type": "Feature", "geometry": {"type": "Point", "coordinates": [-81.3945279533907, 37.8326115043407]}, "properties": {"name": "Clay Cemetery"}}, {"type": "Feature", "geometry": {"type": "Point", "coordinates": [-81.2942260293557, 37.8187126872223]}, "properties": {"name": "Clay Cemetery"}}, {"type": "Feature", "geometry": {"type": "Point", "coordinates": [-81.8354519978784, 38.3811933261116]}, "properties": {"name": "College Hill Cemetery"}}, {"type": "Feature", "geometry": {"type": "Point", "coordinates": [-81.3687274010142, 37.8265118580102]}, "properties": {"name": "Cook Cemetery"}}, {"type": "Feature", "geometry": {"type": "Point", "coordinates": [-81.8304435372913, 37.9832027825996]}, "properties": {"name": "Cook Cemetery"}}, {"type": "Feature", "geometry": {"type": "Point", "coordinates": [-81.4359285604771, 37.829511178158]}, "properties": {"name": "Cook Cemetery"}}, {"type": "Feature", "geometry": {"type": "Point", "coordinates": [-81.473429405886, 37.8398106284016]}, "properties": {"name": "Cooks Cemetery"}}, {"type": "Feature", "geometry": {"type": "Point", "coordinates": [-81.6184400699384, 38.1226027751455]}, "properties": {"name": "Coon Cemetery"}}, {"type": "Feature", "geometry": {"type": "Point", "coordinates": [-81.765443219619, 38.0776015284329]}, "properties": {"name": "Cooper Cemetery"}}, {"type": "Feature", "geometry": {"type": "Point", "coordinates": [-81.662042531919, 38.1768008658953]}, "properties": {"name": "Courtney Cemetery"}}, {"type": "Feature", "geometry": {"type": "Point", "coordinates": [-81.3773266540168, 37.7854125450409]}, "properties": {"name": "Covey Cemetery"}}, {"type": "Feature", "geometry": {"type": "Point", "coordinates": [-81.8929449373427, 37.9359029265928]}, "properties": {"name": "Covey Cemetery"}}, {"type": "Feature", "geometry": {"type": "Point", "coordinates": [-81.9259457224928, 37.9137029730868]}, "properties": {"name": "Craddock Cemetery"}}, {"type": "Feature", "geometry": {"type": "Point", "coordinates": [-81.2792257706009, 37.817912839193]}, "properties": {"name": "Daniel Cemetery"}}, {"type": "Feature", "geometry": {"type": "Point", "coordinates": [-81.3234268841437, 37.8370120869372]}, "properties": {"name": "Daniel Cemetery"}}, {"type": "Feature", "geometry": {"type": "Point", "coordinates": [-81.4423277900598, 37.7904118720403]}, "properties": {"name": "Daniels Cemetery"}}, {"type": "Feature", "geometry": {"type": "Point", "coordinates": [-81.4092275103218, 37.801511956864]}, "properties": {"name": "Daniels Cemetery"}}, {"type": "Feature", "geometry": {"type": "Point", "coordinates": [-81.480928921435, 37.8132110801898]}, "properties": {"name": "Dickens Cemetery"}}, {"type": "Feature", "geometry": {"type": "Point", "coordinates": [-81.3448273301352, 37.8415118041045]}, "properties": {"name": "Dillon Cemetery"}}, {"type": "Feature", "geometry": {"type": "Point", "coordinates": [-81.7912445912101, 38.100700595041]}, "properties": {"name": "Dolin Cemetery"}}, {"type": "Feature", "geometry": {"type": "Point", "coordinates": [-81.7592438216162, 38.1154007313785]}, "properties": {"name": "Dolin Cemetery"}}, {"type": "Feature", "geometry": {"type": "Point", "coordinates": [-81.6940421850992, 38.1248015340076]}, "properties": {"name": "Drawdy Cemetery"}}, {"type": "Feature", "geometry": {"type": "Point", "coordinates": [-81.3520288373296, 37.9068105339208]}, "properties": {"name": "Dunbar Cemetery"}}, {"type": "Feature", "geometry": {"type": "Point", "coordinates": [-81.8201456940078, 38.1065000201]}, "properties": {"name": "Echols Cemetery"}}, {"type": "Feature", "geometry": {"type": "Point", "coordinates": [-81.8742446690731, 37.9593026787196]}, "properties": {"name": "Elkins Cemetery"}}, {"type": "Feature", "geometry": {"type": "Point", "coordinates": [-81.8526438957273, 37.9579030031568]}, "properties": {"name": "Epling Cemetery"}}, {"type": "Feature", "geometry": {"type": "Point", "coordinates": [-81.439228813017, 37.8384109762961]}, "properties": {"name": "Eunice Cemetery"}}, {"type": "Feature", "geometry": {"type": "Point", "coordinates": [-81.6554415264643, 38.1415017673136]}, "properties": {"name": "Evans Cemetery"}}, {"type": "Feature", "geometry": {"type": "Point", "coordinates": [-81.4223266992667, 37.7554127181485]}, "properties": {"name": "Farmer Cemetery"}}, {"type": "Feature", "geometry": {"type": "Point", "coordinates": [-81.41042661284, 37.7598127369069]}, "properties": {"name": "Farmer Cemetery"}}, {"type": "Feature", "geometry": {"type": "Point", "coordinates": [-81.6317409945419, 38.1459020472582]}, "properties": {"name": "Fauber Cemetery"}}, {"type": "Feature", "geometry": {"type": "Point", "coordinates": [-81.6065399221655, 38.1298028042319]}, "properties": {"name": "Ferrell Cemetery"}}, {"type": "Feature", "geometry": {"type": "Point", "coordinates": [-81.8692442180842, 37.9423031073891]}, "properties": {"name": "Ferrell Cemetery"}}, {"type": "Feature", "geometry": {"type": "Point", "coordinates": [-81.3845276145713, 37.8245117491542]}, "properties": {"name": "Flashman Cemetery"}}, {"type": "Feature", "geometry": {"type": "Point", "coordinates": [-81.8109492181236, 38.2875958480762]}, "properties": {"name": "Forks of Coal Memorial Park"}}, {"type": "Feature", "geometry": {"type": "Point", "coordinates": [-81.6570417061564, 38.1473016112788]}, "properties": {"name": "Foster Cemetery"}}, {"type": "Feature", "geometry": {"type": "Point", "coordinates": [-81.3804300769708, 37.9415096011519]}, "properties": {"name": "Fulton Cemetery"}}, {"type": "Feature", "geometry": {"type": "Point", "coordinates": [-81.7756425450866, 38.0298025080483]}, "properties": {"name": "Gomez Cemetery"}}, {"type": "Feature", "geometry": {"type": "Point", "coordinates": [-81.8642443297723, 37.9598028047577]}, "properties": {"name": "Gore Cemetery"}}, {"type": "Feature", "geometry": {"type": "Point", "coordinates": [-81.8651462200742, 38.0582005203212]}, "properties": {"name": "Green Bias Cemetery"}}, {"type": "Feature", "geometry": {"type": "Point", "coordinates": [-81.8456469062117, 38.1231992292594]}, "properties": {"name": "Griffith Cemetery"}}, {"type": "Feature", "geometry": {"type": "Point", "coordinates": [-81.804045065816, 38.1026003567477]}, "properties": {"name": "Gunnoes Cemetery"}}, {"type": "Feature", "geometry": {"type": "Point", "coordinates": [-81.8631444236739, 37.9679026487364]}, "properties": {"name": "Hager Cemetery"}}, {"type": "Feature", "geometry": {"type": "Point", "coordinates": [-81.844244116215, 37.9893024624469]}, "properties": {"name": "Hager Cemetery"}}, {"type": "Feature", "geometry": {"type": "Point", "coordinates": [-81.8640447860565, 37.9882022074066]}, "properties": {"name": "Hager Cemetery"}}, {"type": "Feature", "geometry": {"type": "Point", "coordinates": [-81.8340426048066, 37.9184040759498]}, "properties": {"name": "Hale Cemetery"}}, {"type": "Feature", "geometry": {"type": "Point", "coordinates": [-81.8026450183259, 38.1026003778647]}, "properties": {"name": "Halstead Cemetery"}}, {"type": "Feature", "geometry": {"type": "Point", "coordinates": [-81.7334428272264, 38.1051013710913]}, "properties": {"name": "Harless Cemetery"}}, {"type": "Feature", "geometry": {"type": "Point", "coordinates": [-81.8987494072635, 38.1578975606595]}, "properties": {"name": "Harless Cemetery"}}, {"type": "Feature", "geometry": {"type": "Point", "coordinates": [-81.3059262640192, 37.8209125401913]}, "properties": {"name": "Harper Cemetery"}}, {"type": "Feature", "geometry": {"type": "Point", "coordinates": [-81.3870270411702, 37.7962122565378]}, "properties": {"name": "Henderson Cemetery"}}, {"type": "Feature", "geometry": {"type": "Point", "coordinates": [-81.859852074729, 38.3481937146845]}, "properties": {"name": "Henley Cemetery"}}, {"type": "Feature", "geometry": {"type": "Point", "coordinates": [-81.4581318442718, 37.9590084576503]}, "properties": {"name": "Hill Cemetery"}}, {"type": "Feature", "geometry": {"type": "Point", "coordinates": [-81.862348147051, 38.1558981759558]}, "properties": {"name": "Hill Cemetery"}}, {"type": "Feature", "geometry": {"type": "Point", "coordinates": [-81.3520292392983, 37.9257101858779]}, "properties": {"name": "Hodge Cemetery"}}, {"type": "Feature", "geometry": {"type": "Point", "coordinates": [-81.3987304548037, 37.9440093647183]}, "properties": {"name": "Hodge Cemetery"}}, {"type": "Feature", "geometry": {"type": "Point", "coordinates": [-81.7209444975464, 38.1958994636631]}, "properties": {"name": "Holstein Cemetery"}}, {"type": "Feature", "geometry": {"type": "Point", "coordinates": [-81.8840502374313, 38.2222962048866]}, "properties": {"name": "Holstein Cemetery"}}, {"type": "Feature", "geometry": {"type": "Point", "coordinates": [-81.4270284420696, 37.8307112378719]}, "properties": {"name": "Honaker Cemetery"}}, {"type": "Feature", "geometry": {"type": "Point", "coordinates": [-81.8523464506499, 38.0903999250383]}, "properties": {"name": "Hopkins Cemetery"}}, {"type": "Feature", "geometry": {"type": "Point", "coordinates": [-81.4292278360525, 37.801811770648]}, "properties": {"name": "Hurst Cemetery"}}, {"type": "Feature", "geometry": {"type": "Point", "coordinates": [-81.6540411462981, 38.1270021155097]}, "properties": {"name": "Indian Creek Cemetery"}}, {"type": "Feature", "geometry": {"type": "Point", "coordinates": [-81.436229463916, 37.8698104012465]}, "properties": {"name": "Jarrell Cemetery"}}, {"type": "Feature", "geometry": {"type": "Point", "coordinates": [-81.4770305295206, 37.8865096795834]}, "properties": {"name": "Jarrell Cemetery"}}, {"type": "Feature", "geometry": {"type": "Point", "coordinates": [-81.7709420379306, 38.0137029563573]}, "properties": {"name": "Jarrell Cemetery"}}, {"type": "Feature", "geometry": {"type": "Point", "coordinates": [-81.5940344612148, 37.9079076583514]}, "properties": {"name": "Jarrells Cemetery"}}, {"type": "Feature", "geometry": {"type": "Point", "coordinates": [-81.6781394543239, 38.02540404298]}, "properties": {"name": "Jarrells Cemetery"}}, {"type": "Feature", "geometry": {"type": "Point", "coordinates": [-81.5498334513851, 37.9273079191322]}, "properties": {"name": "Jarrells Cemetery"}}, {"type": "Feature", "geometry": {"type": "Point", "coordinates": [-81.7056427650212, 38.1365010819779]}, "properties": {"name": "Javins Cemetery"}}, {"type": "Feature", "geometry": {"type": "Point", "coordinates": [-81.7070428141022, 38.1370010482239]}, "properties": {"name": "Javins Cemetery"}}, {"type": "Feature", "geometry": {"type": "Point", "coordinates": [-81.8195433986129, 37.9979026329118]}, "properties": {"name": "Kentucky Knoll Cemetery"}}, {"type": "Feature", "geometry": {"type": "Point", "coordinates": [-81.7142436857398, 38.1673002343445]}, "properties": {"name": "Kinder Cemetery"}}, {"type": "Feature", "geometry": {"type": "Point", "coordinates": [-81.6615425047568, 38.1762008875752]}, "properties": {"name": "Kirk Cemetery"}}, {"type": "Feature", "geometry": {"type": "Point", "coordinates": [-81.4259287988141, 37.8476109251094]}, "properties": {"name": "Lafferty Cemetery"}}, {"type": "Feature", "geometry": {"type": "Point", "coordinates": [-81.7501411384864, 38.0054034486961]}, "properties": {"name": "Lawson Cemetery"}}, {"type": "Feature", "geometry": {"type": "Point", "coordinates": [-81.8001395305552, 37.8023068764804]}, "properties": {"name": "Lowe Cemetery"}}, {"type": "Feature", "geometry": {"type": "Point", "coordinates": [-81.3267260202077, 37.793212852179]}, "properties": {"name": "Lucas Cemetery"}}, {"type": "Feature", "geometry": {"type": "Point", "coordinates": [-81.4201288930782, 37.8562108160762]}, "properties": {"name": "Massey Cemetery"}}, {"type": "Feature", "geometry": {"type": "Point", "coordinates": [-81.4376291906473, 37.8565106433677]}, "properties": {"name": "Massey Cemetery"}}, {"type": "Feature", "geometry": {"type": "Point", "coordinates": [-81.3409288086933, 37.9145105041174]}, "properties": {"name": "Maynor Cemetery"}}, {"type": "Feature", "geometry": {"type": "Point", "coordinates": [-81.6926435220308, 38.1851001773493]}, "properties": {"name": "McDerment Cemetery"}}, {"type": "Feature", "geometry": {"type": "Point", "coordinates": [-81.3681260132175, 37.7623130555548]}, "properties": {"name": "McDonald Cemetery"}}, {"type": "Feature", "geometry": {"type": "Point", "coordinates": [-81.3379270521374, 37.8337120115702]}, "properties": {"name": "McGinnis Cemetery"}}, {"type": "Feature", "geometry": {"type": "Point", "coordinates": [-81.4187289183904, 37.8584107875347]}, "properties": {"name": "McGinnis Cemetery"}}, {"type": "Feature", "geometry": {"type": "Point", "coordinates": [-81.4240288471641, 37.851210874342]}, "properties": {"name": "McGinnis Cemetery"}}, {"type": "Feature", "geometry": {"type": "Point", "coordinates": [-81.9390503426275, 38.1372974501637]}, "properties": {"name": "McNealy Cemetery"}}, {"type": "Feature", "geometry": {"type": "Point", "coordinates": [-81.3359268909077, 37.8276121416299]}, "properties": {"name": "Meadows Cemetery"}}, {"type": "Feature", "geometry": {"type": "Point", "coordinates": [-81.6154401370428, 38.1287026876886]}, "properties": {"name": "Meadows Cemetery"}}, {"type": "Feature", "geometry": {"type": "Point", "coordinates": [-81.9431511768598, 38.1719965155635]}, "properties": {"name": "Meadows Cemetery"}}, {"type": "Feature", "geometry": {"type": "Point", "coordinates": [-81.6373410320846, 38.1412020625656]}, "properties": {"name": "Mechanics And Miners Cemetery"}}, {"type": "Feature", "geometry": {"type": "Point", "coordinates": [-81.8323444613348, 38.0279017344254]}, "properties": {"name": "Memory Gardens"}}, {"type": "Feature", "geometry": {"type": "Point", "coordinates": [-81.6529371532634, 37.9493059841464]}, "properties": {"name": "Middle Ferrell Cemetery"}}, {"type": "Feature", "geometry": {"type": "Point", "coordinates": [-81.9079511963922, 38.2306956112158]}, "properties": {"name": "Midkiff Cemetery"}}, {"type": "Feature", "geometry": {"type": "Point", "coordinates": [-81.427327910017, 37.8065116979103]}, "properties": {"name": "Milam Cemetery"}}, {"type": "Feature", "geometry": {"type": "Point", "coordinates": [-81.2704244121528, 37.7579139786859]}, "properties": {"name": "Miller Cemetery"}}, {"type": "Feature", "geometry": {"type": "Point", "coordinates": [-81.894246716324, 38.0337006975439]}, "properties": {"name": "Miller Cemetery"}}, {"type": "Feature", "geometry": {"type": "Point", "coordinates": [-81.7626430875425, 38.0759016101032]}, "properties": {"name": "Miller Cemetery"}}, {"type": "Feature", "geometry": {"type": "Point", "coordinates": [-81.7726437329801, 38.0901011258809]}, "properties": {"name": "Miller Cemetery"}}, {"type": "Feature", "geometry": {"type": "Point", "coordinates": [-81.9298500108897, 38.1361976191966]}, "properties": {"name": "Miller Cemetery"}}, {"type": "Feature", "geometry": {"type": "Point", "coordinates": [-81.728742580283, 38.099801567409]}, "properties": {"name": "Miller Cemetery"}}, {"type": "Feature", "geometry": {"type": "Point", "coordinates": [-81.7751438116125, 38.0898010955409]}, "properties": {"name": "Miller Cemetery"}}, {"type": "Feature", "geometry": {"type": "Point", "coordinates": [-81.8309449431609, 38.0532011437663]}, "properties": {"name": "Miller Cemetery"}}, {"type": "Feature", "geometry": {"type": "Point", "coordinates": [-81.8709456325682, 38.0201013681811]}, "properties": {"name": "Miller Cemetery"}}, {"type": "Feature", "geometry": {"type": "Point", "coordinates": [-81.476730442375, 37.8829097530587]}, "properties": {"name": "Miller Cemetery"}}, {"type": "Feature", "geometry": {"type": "Point", "coordinates": [-81.8959459707796, 37.9929016582427]}, "properties": {"name": "Miller Cemetery"}}, {"type": "Feature", "geometry": {"type": "Point", "coordinates": [-81.3601294684124, 37.9298100274839]}, "properties": {"name": "Moles Cemetery"}}, {"type": "Feature", "geometry": {"type": "Point", "coordinates": [-81.8442472988638, 38.1442987387359]}, "properties": {"name": "Moore Cemetery"}}, {"type": "Feature", "geometry": {"type": "Point", "coordinates": [-81.9090511309109, 38.2256957175092]}, "properties": {"name": "Moore Cemetery"}}, {"type": "Feature", "geometry": {"type": "Point", "coordinates": [-81.539534346687, 37.9829069693637]}, "properties": {"name": "Mordue Cemetery"}}, {"type": "Feature", "geometry": {"type": "Point", "coordinates": [-81.730444766547, 38.1969992814093]}, "properties": {"name": "Morris Cemetery"}}, {"type": "Feature", "geometry": {"type": "Point", "coordinates": [-81.7351449182161, 38.1983991712282]}, "properties": {"name": "Morris Cemetery"}}, {"type": "Feature", "geometry": {"type": "Point", "coordinates": [-81.818145188268, 38.0857005502489]}, "properties": {"name": "Mullins Cemetery"}}, {"type": "Feature", "geometry": {"type": "Point", "coordinates": [-81.6090386534804, 38.0754039625076]}, "properties": {"name": "Oxley Cemetery"}}, {"type": "Feature", "geometry": {"type": "Point", "coordinates": [-81.8342490892555, 38.2458964371369]}, "properties": {"name": "Pate Cemetery"}}, {"type": "Feature", "geometry": {"type": "Point", "coordinates": [-81.7726406928715, 37.9320046106689]}, "properties": {"name": "Pauley Cemetery"}}, {"type": "Feature", "geometry": {"type": "Point", "coordinates": [-81.8540446197737, 37.9993021147277]}, "properties": {"name": "Pauley Cemetery"}}, {"type": "Feature", "geometry": {"type": "Point", "coordinates": [-81.8979500319928, 38.1897967843852]}, "properties": {"name": "Pauley Cemetery"}}, {"type": "Feature", "geometry": {"type": "Point", "coordinates": [-81.8906505636086, 38.2275959677912]}, "properties": {"name": "Pauley Cemetery"}}, {"type": "Feature", "geometry": {"type": "Point", "coordinates": [-81.7848443079259, 38.0976007650841]}, "properties": {"name": "Perdue Cemetery"}}, {"type": "Feature", "geometry": {"type": "Point", "coordinates": [-81.689243433645, 38.1851002330536]}, "properties": {"name": "Perry Cemetery"}}, {"type": "Feature", "geometry": {"type": "Point", "coordinates": [-81.9456507050172, 38.1442971726663]}, "properties": {"name": "Peterson Cemetery"}}, {"type": "Feature", "geometry": {"type": "Point", "coordinates": [-81.4501296658098, 37.8684102939405]}, "properties": {"name": "Pettry Cemetery"}}, {"type": "Feature", "geometry": {"type": "Point", "coordinates": [-81.4965306236148, 37.8762096917011]}, "properties": {"name": "Pettry Cemetery"}}, {"type": "Feature", "geometry": {"type": "Point", "coordinates": [-81.5415378757898, 38.1190040632373]}, "properties": {"name": "Pettry Cemetery"}}, {"type": "Feature", "geometry": {"type": "Point", "coordinates": [-81.5765376777697, 38.0732045066291]}, "properties": {"name": "Pineview Cemetery"}}, {"type": "Feature", "geometry": {"type": "Point", "coordinates": [-81.6331409863792, 38.1440020671757]}, "properties": {"name": "Porter Cemetery"}}, {"type": "Feature", "geometry": {"type": "Point", "coordinates": [-81.8231434681555, 37.9945026519215]}, "properties": {"name": "Powell Cemetery"}}, {"type": "Feature", "geometry": {"type": "Point", "coordinates": [-81.4001284885261, 37.8529110691331]}, "properties": {"name": "Price Cemetery"}}, {"type": "Feature", "geometry": {"type": "Point", "coordinates": [-81.8020436803776, 38.0404018731849]}, "properties": {"name": "Price Cemetery"}}, {"type": "Feature", "geometry": {"type": "Point", "coordinates": [-81.8467464559428, 38.0997997806662]}, "properties": {"name": "Price Cemetery"}}, {"type": "Feature", "geometry": {"type": "Point", "coordinates": [-81.6681426076041, 38.1732008478882]}, "properties": {"name": "Price Cemetery"}}, {"type": "Feature", "geometry": {"type": "Point", "coordinates": [-81.8987450264347, 37.9290029980878]}, "properties": {"name": "Richardson Cemetery"}}, {"type": "Feature", "geometry": {"type": "Point", "coordinates": [-81.4267270752933, 37.7693124145969]}, "properties": {"name": "Richmond Cemetery"}}, {"type": "Feature", "geometry": {"type": "Point", "coordinates": [-81.436528987268, 37.848210813323]}, "properties": {"name": "Richmond Cemetery"}}, {"type": "Feature", "geometry": {"type": "Point", "coordinates": [-81.8401465868993, 38.116799468238]}, "properties": {"name": "Riley Hill Cemetery"}}, {"type": "Feature", "geometry": {"type": "Point", "coordinates": [-81.3987280219901, 37.8326114652095]}, "properties": {"name": "Rorrer Cemetery"}}, {"type": "Feature", "geometry": {"type": "Point", "coordinates": [-81.4056285051847, 37.8495110811665]}, "properties": {"name": "Rorrer Cemetery"}}, {"type": "Feature", "geometry": {"type": "Point", "coordinates": [-81.9062491942284, 38.1350980093083]}, "properties": {"name": "Ryan Cemetery"}}, {"type": "Feature", "geometry": {"type": "Point", "coordinates": [-81.9420506162078, 38.145897188096]}, "properties": {"name": "Ryan Cemetery"}}, {"type": "Feature", "geometry": {"type": "Point", "coordinates": [-81.94265075878, 38.1519970256396]}, "properties": {"name": "Ryan Cemetery"}}, {"type": "Feature", "geometry": {"type": "Point", "coordinates": [-81.9395507231566, 38.1553969884354]}, "properties": {"name": "Ryan Cemetery"}}, {"type": "Feature", "geometry": {"type": "Point", "coordinates": [-81.8765452642971, 37.9909019744097]}, "properties": {"name": "Sander Cemetery"}}, {"type": "Feature", "geometry": {"type": "Point", "coordinates": [-81.9023451743712, 37.9304029200574]}, "properties": {"name": "Sanders Cemetery"}}, {"type": "Feature", "geometry": {"type": "Point", "coordinates": [-81.4129281064413, 37.8259114601371]}, "properties": {"name": "Sarrett-Lemon Cemetery"}}, {"type": "Feature", "geometry": {"type": "Point", "coordinates": [-81.4367287965398, 37.83951097859]}, "properties": {"name": "Sarrett Cemetery"}}, {"type": "Feature", "geometry": {"type": "Point", "coordinates": [-81.4184289509305, 37.8601107580327]}, "properties": {"name": "Scarbrough Cemetery"}}, {"type": "Feature", "geometry": {"type": "Point", "coordinates": [-81.6890432431141, 38.1770004212394]}, "properties": {"name": "Snodgrass Cemetery"}}, {"type": "Feature", "geometry": {"type": "Point", "coordinates": [-81.3870264814224, 37.7704127401602]}, "properties": {"name": "Snuffer Cemetery"}}, {"type": "Feature", "geometry": {"type": "Point", "coordinates": [-81.2942255790419, 37.7968130785721]}, "properties": {"name": "Snuffer Cemetery"}}, {"type": "Feature", "geometry": {"type": "Point", "coordinates": [-81.4487320309259, 37.9748082510695]}, "properties": {"name": "Stanley Cemeteries"}}, {"type": "Feature", "geometry": {"type": "Point", "coordinates": [-81.3901277120033, 37.8248116917747]}, "properties": {"name": "Stewart Cemetery"}}, {"type": "Feature", "geometry": {"type": "Point", "coordinates": [-81.8712450573636, 37.9895020787252]}, "properties": {"name": "Stolling Cemetery"}}, {"type": "Feature", "geometry": {"type": "Point", "coordinates": [-81.3209273424082, 37.8609116772256]}, "properties": {"name": "Stover Cemetery"}}, {"type": "Feature", "geometry": {"type": "Point", "coordinates": [-81.3362279895934, 37.8795111908459]}, "properties": {"name": "Stover Cemetery"}}, {"type": "Feature", "geometry": {"type": "Point", "coordinates": [-81.3379281955398, 37.8879110206864]}, "properties": {"name": "Stover Cemetery"}}, {"type": "Feature", "geometry": {"type": "Point", "coordinates": [-81.3806300329449, 37.9393096401894]}, "properties": {"name": "Stover Cemetery"}}, {"type": "Feature", "geometry": {"type": "Point", "coordinates": [-81.3473295750408, 37.9454098718927]}, "properties": {"name": "Stover Cemetery"}}, {"type": "Feature", "geometry": {"type": "Point", "coordinates": [-81.8584523976952, 38.3656933423788]}, "properties": {"name": "Sutherland-White Cemetery"}}, {"type": "Feature", "geometry": {"type": "Point", "coordinates": [-81.4173275667273, 37.7982119465741]}, "properties": {"name": "Tabor Cemetery"}}, {"type": "Feature", "geometry": {"type": "Point", "coordinates": [-81.8904473821414, 38.0725997933224]}, "properties": {"name": "Tawney Cemetery"}}, {"type": "Feature", "geometry": {"type": "Point", "coordinates": [-81.420927845111, 37.8082117235533]}, "properties": {"name": "Taylor Cemetery"}}, {"type": "Feature", "geometry": {"type": "Point", "coordinates": [-81.3642286364403, 37.887610767493]}, "properties": {"name": "Taylor Cemetery"}}, {"type": "Feature", "geometry": {"type": "Point", "coordinates": [-81.8459524578439, 38.3872930363758]}, "properties": {"name": "Teays Hill Cemetery"}}, {"type": "Feature", "geometry": {"type": "Point", "coordinates": [-81.8512511266527, 38.3161945653528]}, "properties": {"name": "Templeton Cemetery"}}, {"type": "Feature", "geometry": {"type": "Point", "coordinates": [-81.3256255775715, 37.7729132307884]}, "properties": {"name": "Trail Cemetery"}}, {"type": "Feature", "geometry": {"type": "Point", "coordinates": [-81.3998267900236, 37.7754125340829]}, "properties": {"name": "Trump Cemetery"}}, {"type": "Feature", "geometry": {"type": "Point", "coordinates": [-81.3648266477358, 37.794312490971]}, "properties": {"name": "Trump Cemetery"}}, {"type": "Feature", "geometry": {"type": "Point", "coordinates": [-81.3129258991662, 37.7979128908079]}, "properties": {"name": "Tulliver Cemetery"}}, {"type": "Feature", "geometry": {"type": "Point", "coordinates": [-81.295426254521, 37.8287124973876]}, "properties": {"name": "Turner Cemetery"}}, {"type": "Feature", "geometry": {"type": "Point", "coordinates": [-81.4451315177697, 37.9548086752984]}, "properties": {"name": "Union Cemetery"}}, {"type": "Feature", "geometry": {"type": "Point", "coordinates": [-81.8062451171784, 38.1015003498882]}, "properties": {"name": "Vandelinde Cemetery"}}, {"type": "Feature", "geometry": {"type": "Point", "coordinates": [-81.9529511321252, 38.153396830594]}, "properties": {"name": "Vickers Cemetery"}}, {"type": "Feature", "geometry": {"type": "Point", "coordinates": [-81.6837425181241, 38.1515010883923]}, "properties": {"name": "Wade Cemetery"}}, {"type": "Feature", "geometry": {"type": "Point", "coordinates": [-81.4784287967903, 37.8095111755709]}, "properties": {"name": "Webb Cemetery"}}, {"type": "Feature", "geometry": {"type": "Point", "coordinates": [-81.8567480528294, 38.1603981533494]}, "properties": {"name": "White Cemetery"}}, {"type": "Feature", "geometry": {"type": "Point", "coordinates": [-81.8087407963795, 37.861505568889]}, "properties": {"name": "White Oak Cemetery"}}, {"type": "Feature", "geometry": {"type": "Point", "coordinates": [-81.5656371188955, 38.0634048843568]}, "properties": {"name": "White Oak Cemetery"}}, {"type": "Feature", "geometry": {"type": "Point", "coordinates": [-81.4798304698004, 37.8818097442878]}, "properties": {"name": "William Cemetery"}}, {"type": "Feature", "geometry": {"type": "Point", "coordinates": [-81.4331276556654, 37.7909119445048]}, "properties": {"name": "Williams Cemetery"}}, {"type": "Feature", "geometry": {"type": "Point", "coordinates": [-81.4337279946965, 37.8057116552055]}, "properties": {"name": "Williams Cemetery"}}, {"type": "Feature", "geometry": {"type": "Point", "coordinates": [-81.4248287983719, 37.8484109202325]}, "properties": {"name": "Williams Cemetery"}}, {"type": "Feature", "geometry": {"type": "Point", "coordinates": [-81.4145286589966, 37.8498109911257]}, "properties": {"name": "Williams Cemetery"}}, {"type": "Feature", "geometry": {"type": "Point", "coordinates": [-81.6740394104658, 38.0287040286969]}, "properties": {"name": "Williams Cemetery"}}, {"type": "Feature", "geometry": {"type": "Point", "coordinates": [-81.7670435596335, 38.0909011908698]}, "properties": {"name": "Williams Cemetery"}}, {"type": "Feature", "geometry": {"type": "Point", "coordinates": [-81.4162281843283, 37.8270114086772]}, "properties": {"name": "Wills Cemetery"}}, {"type": "Feature", "geometry": {"type": "Point", "coordinates": [-81.4206287842271, 37.8509109123347]}, "properties": {"name": "Wills Cemetery"}}, {"type": "Feature", "geometry": {"type": "Point", "coordinates": [-81.3306268697866, 37.8307121342991]}, "properties": {"name": "Wiseman Cemetery"}}, {"type": "Feature", "geometry": {"type": "Point", "coordinates": [-81.4342276730717, 37.7909119346888]}, "properties": {"name": "Workman Cemetery"}}, {"type": "Feature", "geometry": {"type": "Point", "coordinates": [-81.3340285564879, 37.9082106886788]}, "properties": {"name": "Workman Cemetery"}}, {"type": "Feature", "geometry": {"type": "Point", "coordinates": [-81.7745409598626, 37.9443043399676]}, "properties": {"name": "Workman Cemetery"}}, {"type": "Feature", "geometry": {"type": "Point", "coordinates": [-81.8595446427905, 37.9890022537312]}, "properties": {"name": "Workman Cemetery"}}, {"type": "Feature", "geometry": {"type": "Point", "coordinates": [-81.6509413579702, 38.1395018839409]}, "properties": {"name": "Workman Cemetery"}}, {"type": "Feature", "geometry": {"type": "Point", "coordinates": [-81.4087267996036, 37.7695125677664]}, "properties": {"name": "Worley Cemetery"}}, {"type": "Feature", "geometry": {"type": "Point", "coordinates": [-81.3254276687827, 37.8729114161291]}, "properties": {"name": "Wright Cemetery"}}]}